[
  {
    "id": 1,
    "name": "紀伊國屋書店 新宿本店",
    "address": "東京都新宿区新宿3-17-7",
    "latitude": 35.6908,
    "longitude": 139.7031,
    "phone": "03-3354-0131",
    "prefecture": "東京都"
  },
  {
    "id": 2,
    "name": "丸善 丸の内本店",
    "address": "東京都千代田区丸の内1-6-4 丸の内オアゾ1〜4F",
    "latitude": 35.6818,
    "longitude": 139.7649,
    "phone": "03-5288-8881",
    "prefecture": "東京都"
  },
  {
    "id": 3,
    "name": "有隣堂 横浜駅西口店",
    "address": "神奈川県横浜市西区南幸1-4-B1F ジョイナス",
    "latitude": 35.4657,
    "longitude": 139.6223,
    "phone": "045-311-6265",
    "prefecture": "神奈川県"
  },
  {
    "id": 4,
    "name": "三省堂書店 池袋本店",
    "address": "東京都豊島区南池袋1-28-1 西武池袋本店別館7F・8F",
    "latitude": 35.7292,
    "longitude": 139.7115,
    "phone": "03-6864-8900",
    "prefecture": "東京都"
  },
  {
    "id": 5,
    "name": "ブックファースト 新宿店",
    "address": "東京都新宿区西新宿1-1-3 小田急新宿店内B2F",
    "latitude": 35.6921,
    "longitude": 139.6994,
    "phone": "03-5339-7611",
    "prefecture": "東京都"
  },
  {
    "id": 6,
    "name": "啓文堂書店 吉祥寺店",
    "address": "東京都武蔵野市吉祥寺本町2-3-1 コピス吉祥寺B館",
    "latitude": 35.7025,
    "longitude": 139.5800,
    "phone": "0422-22-3030",
    "prefecture": "東京都"
  },
  {
    "id": 7,
    "name": "Book&Cafe Stand 新海月",
    "address": "神奈川県鎌倉市長谷2-8-17",
    "latitude": 35.3120,
    "longitude": 139.5345,
    "phone": "0467-81-3661",
    "prefecture": "神奈川県"
  },
  {
    "id": 8,
    "name": "ジュンク堂書店 池袋本店",
    "address": "東京都豊島区南池袋2-15-5",
    "latitude": 35.7275,
    "longitude": 139.7120,
    "phone": "03-5956-6111",
    "prefecture": "東京都"
  },
  {
    "id": 9,
    "name": "TSUTAYA BOOKSTORE 代官山蔦屋書店",
    "address": "東京都渋谷区猿楽町17-5 代官山 T-SITE",
    "latitude": 35.6498,
    "longitude": 139.6984,
    "phone": "03-3770-2525",
    "prefecture": "東京都"
  },
  {
    "id": 10,
    "name": "八重洲ブックセンター 本店",
    "address": "東京都中央区八重洲2-5-1",
    "latitude": 35.6784,
    "longitude": 139.7686,
    "phone": "03-3281-8182",
    "prefecture": "東京都"
  }
] 